<?xml version="1.0" encoding="UTF-8"?>
<kml xmlns="http://www.opengis.net/kml/2.2">
  <Document>
    <name>Mapa Generado</name>
    <description>Mapa generado a partir de un XML.</description>
    <Folder>
      <name>Sector 1</name>
      <Placemark>
        <name>Recta salida</name>
        <Point>
          <coordinates>2.256657035827436,41.56560753823936,117.65</coordinates>
        </Point>
      </Placemark>
      <Placemark>
        <name>Curva 1: ELF</name>
        <Point>
          <coordinates>2.255720504698568,41.56478379312897,112.63</coordinates>
        </Point>
      </Placemark>
      <Placemark>
        <name>Curva 2: Sin nombre</name>
        <Point>
          <coordinates>2.253974779890378,41.5649371832321,129.6745348478264</coordinates>
        </Point>
      </Placemark>
      <Placemark>
        <name>Curva 3: Curvón o Renault</name>
        <Point>
          <coordinates>2.252788019233611,41.56681947519315,120</coordinates>
        </Point>
      </Placemark>
      <Placemark>
        <name>Recta entre Curva 3 y Curva 4</name>
        <Point>
          <coordinates>2.253678210721495,41.56789048988144,130.6</coordinates>
        </Point>
      </Placemark>
      <Placemark>
        <name>Curva 4: Repsol</name>
        <Point>
          <coordinates>2.254634009032372,41.56679382520867,131.24</coordinates>
        </Point>
      </Placemark>
    </Folder>
    <Folder>
      <name>Sector 2</name>
      <Placemark>
        <name>Recta entre Curva 4 y Curva 5</name>
        <Point>
          <coordinates>2.254049478037765,41.56596077664489,129.34</coordinates>
        </Point>
      </Placemark>
      <Placemark>
        <name>Curva 5: Seat</name>
        <Point>
          <coordinates>2.255482700448257,41.5658976944248,121.5</coordinates>
        </Point>
      </Placemark>
      <Placemark>
        <name>Curva 6: Sin nombre</name>
        <Point>
          <coordinates>2.256581411288325,41.56641985353408,118</coordinates>
        </Point>
      </Placemark>
      <Placemark>
        <name>Curva 7: TV3</name>
        <Point>
          <coordinates>2.257422441478476,41.56785976347653,118.2</coordinates>
        </Point>
      </Placemark>
      <Placemark>
        <name>Curva 8: La Moreneta</name>
        <Point>
          <coordinates>2.256675369199357,41.56843592899713,123</coordinates>
        </Point>
      </Placemark>
    </Folder>
    <Folder>
      <name>Sector 3</name>
      <Placemark>
        <name>Recta entre Curva 8 y Curva 9</name>
        <Point>
          <coordinates>2.2560200713662,41.56956249008734,132</coordinates>
        </Point>
      </Placemark>
      <Placemark>
        <name>Curva 9: Campsa</name>
        <Point>
          <coordinates>2.256195165213981,41.57031557934533,135</coordinates>
        </Point>
      </Placemark>
      <Placemark>
        <name>Recta entre Curva 9 y Curva 10</name>
        <Point>
          <coordinates>2.261493572935906,41.57233223549515,136.72</coordinates>
        </Point>
      </Placemark>
      <Placemark>
        <name>Curva 10: La Caixa</name>
        <Point>
          <coordinates>2.25997588760066,41.5730477137206,136.2</coordinates>
        </Point>
      </Placemark>
      <Placemark>
        <name>Curva 12: Sin nombre</name>
        <Point>
          <coordinates>2.259550125794869,41.5739005557263,141</coordinates>
        </Point>
      </Placemark>
      <Placemark>
        <name>Curva 13: Europcar</name>
        <Point>
          <coordinates>2.261081981256088,41.57446405418242,135</coordinates>
        </Point>
      </Placemark>
      <Placemark>
        <name>Curva 14</name>
        <Point>
          <coordinates>2.261826604626271,41.57395386895029,130</coordinates>
        </Point>
      </Placemark>
      <Placemark>
        <name>Curva 15</name>
        <Point>
          <coordinates>2.262667362448894,41.57395386895029,130</coordinates>
        </Point>
      </Placemark>
      <Placemark>
        <name>Curva 16: Catalunya</name>
        <Point>
          <coordinates>2.26275833210686,41.57375754337389,129.58</coordinates>
        </Point>
      </Placemark>
      <Placemark>
        <name>Recta entre Curva 16 y la línea de salida</name>
        <Point>
          <coordinates>2.260925191252647,41.56998207135143,129.27</coordinates>
        </Point>
      </Placemark>
    </Folder>
  </Document>
</kml>